
{   "radiusOfEarthquake" :  
    [{
        "category": 9,
        "centerLatitude": 17.0542,
        "centerLongitude": -96.71329,
        "radiusInMeter": 380000,
        "strokeWidth": 0.5,
        "strokeColor": "rgba(255, 255, 255, 0.01)",
        "fillColor": "rgba(50, 200, 0, 0.1)",
        "zIndex": 1
    },
    {
        "category": 8,
        "centerLatitude": 17.0542,
        "centerLongitude": -96.71329,
        "radiusInMeter": 300000,
        "strokeWidth": 0.5,
        "strokeColor": "rgba(255, 255, 255, 0.01)",
        "fillColor": "rgba(100, 179, 0, 0.3)",
        "zIndex": 2
    },
    {
        "category": 7,
        "centerLatitude": 17.0542,
        "centerLongitude": -96.71329,
        "radiusInMeter": 200000,
        "strokeWidth": 0.5,
        "strokeColor": "rgba(255, 255, 255, 0.01)",
        "fillColor": "rgba(120, 159, 0, 0.3)",
        "zIndex": 4
    },
    {
        "category": 6,
        "centerLatitude": 17.0542,
        "centerLongitude": -96.71329,
        "radiusInMeter": 150000,
        "strokeWidth": 0.5,
        "strokeColor": "rgba(255, 255, 255, 0.01)",
        "fillColor": "rgba(200, 17, 0, 0.3)",
        "zIndex": 5
    },
    {
        "category": 5,
        "centerLatitude": 17.0542,
        "centerLongitude": -96.71329,
        "radiusInMeter": 100000,
        "strokeWidth": 0.5,
        "strokeColor": "rgba(255, 255, 255, 0.01)",
        "fillColor": "rgba(200, 120, 0, 0.3)",
        "zIndex": 6
    },
    {
        "category": 4,
        "centerLatitude": 17.0542,
        "centerLongitude": -96.71329,
        "radiusInMeter": 70000,
        "strokeWidth": 0.5,
        "strokeColor": "rgba(255, 255, 255, 0.01)",
        "fillColor": "rgba(160, 0, 0, 0.3)",
        "zIndex": 7
    },
    {
        "category": 3,
        "centerLatitude": 17.0542,
        "centerLongitude": -96.71329,
        "radiusInMeter": 50000,
        "strokeWidth": 0.5,
        "strokeColor": "rgba(255, 255, 255, 0.01)",
        "fillColor": "rgba(180, 10, 0, 0.4)",
        "zIndex": 8
    },
    {
        "category": 2,
        "centerLatitude": 17.0542,
        "centerLongitude": -96.71329,
        "radiusInMeter": 20000,
        "strokeWidth": 0.5,
        "strokeColor": "rgba(255, 255, 255, 0.01)",
        "fillColor": "rgba(180, 0, 0, 0.5)",
        "zIndex": 9
    },
    {
        "category": 1,
        "centerLatitude": 17.0542,
        "centerLongitude": -96.71329,
        "radiusInMeter": 10000,
        "strokeWidth": 0.5,
        "strokeColor": "rgba(255, 255, 255, 0.01)",
        "fillColor": "rgba(255, 0, 0, .5)",
        "zIndex": 10
    }], 
    "markerList" :[
        {
            "markerTitle": "Durango, Mexico",
            "makerDescription": "Marker1",
            "markerLatitude": 24.6345,
            "markerLongitude": -102.5528,
            "withinTremor": false
        },
        {
            "markerTitle": "Central Sonora, Mexico",
            "makerDescription": "Marker2",
            "markerLatitude": 28.2972,
            "markerLongitude": -109.3309,
            "withinTremor": false
        },
        {
            "markerTitle": "Northern Chihuhua, Mexico",
            "makerDescription": "Marker3",
            "markerLatitude": 30.1504,
            "markerLongitude": -107.1143,
            "withinTremor": false
        },
        {
            "markerTitle": "Southern Sonora, Mexico",
            "makerDescription": "Marker4",
            "markerLatitude": 26.96671,
            "markerLongitude": -108.6963,
            "withinTremor": false
        },
        {
            "markerTitle": "Eastern Chihuahua, Mexico",
            "makerDescription": "Marker5",
            "markerLatitude": 27.6694,
            "markerLongitude": -104.7742,
            "withinTremor": false
        },
        {
            "markerTitle": "Monterry Nuevo Leon, Mexico",
            "makerDescription": "Marker6",
            "markerLatitude": 25.8299,
            "markerLongitude": -100.188941,
            "withinTremor": false
        },
        {
            "markerTitle": "Rancho San Fernando, Coahuila, Mexico",
            "makerDescription": "Marker7",
            "markerLatitude": 26.66047,
            "markerLongitude":  -102.285499,
            "withinTremor": false
        },
        {
            "markerTitle": "San Ignacio, Sinaloa, Mexico",
            "makerDescription": "Marker8",
            "markerLatitude": 23.838873 ,
            "markerLongitude":  -105.443824,
            "withinTremor": false
        },
        {
            "markerTitle": "Nayarit, Mexico",
            "makerDescription": "Marker9",
            "markerLatitude": 22.029768 ,
            "markerLongitude":  -104.680518,
            "withinTremor": false
        },
        {
            "markerTitle": "Rioverde, S.L.P., Mexico",
            "makerDescription": "Marker10",
            "markerLatitude": 22.183973,
            "markerLongitude": -100.538672,
            "withinTremor": false
        },
        {
            "markerTitle": "Tamaulipas, Mexico",
            "makerDescription": "Marker11",
            "markerLatitude": 23.399364,
            "markerLongitude": -99.176368,
            "withinTremor": false
        },
        {
            "markerTitle": "Ciudad de Colima, Mexico",
            "makerDescription": "Marker12",
            "markerLatitude": 19.100146,
            "markerLongitude": -102.33008,
            "withinTremor": false
        },
        {
            "markerTitle": "Michoacan, Mexico",
            "makerDescription": "Marker13",
            "markerLatitude": 18.234409,
            "markerLongitude": -100.700704,
            "withinTremor": false
        },
        {
            "markerTitle": "Guerrero, Mexico",
            "makerDescription": "Marker14",
            "markerLatitude": 18.011224,
            "markerLongitude": -99.967383,
            "withinTremor": false
        },
        {
            "markerTitle": "E.D.M., Mexico",
            "makerDescription": "Marker15",
            "markerLatitude": 19.141667,
            "markerLongitude": -99.967383,
            "withinTremor": false
        },
        {
            "markerTitle": "Hidalgo, Mexico",
            "makerDescription": "Marker16",
            "markerLatitude": 19.845908,
            "markerLongitude": -98.912696,
            "withinTremor": false
        },
        {
            "markerTitle": "Southern Gerrero, Mexico",
            "makerDescription": "Marker17",
            "markerLatitude": 16.800993,
            "markerLongitude": -98.165626,
            "withinTremor": false
        },
        {
            "markerTitle": "Veracruz, Mexico",
            "makerDescription": "Marker18",
            "markerLatitude": 19.017074,
            "markerLongitude": -96.583594,
            "withinTremor": false
        },
        {
            "markerTitle": "Oaxaca, Mexico",
            "makerDescription": "Marker19",
            "markerLatitude": 16.464141,
            "markerLongitude": -96.62754,
            "withinTremor": false
        },
        {
            "markerTitle": "Chiapas, Mexico",
            "makerDescription": "Marker20",
            "markerLatitude": 15.450108,
            "markerLongitude": -92.320899,
            "withinTremor": false
        },
        {
            "markerTitle": "Northern Chiapas, Mexico",
            "makerDescription": "Marker21",
            "markerLatitude": 17.472897,
            "markerLongitude": -91.793555,
            "withinTremor": false
        },
        {
            "markerTitle": "Campeche, Mexico",
            "makerDescription": "Marker22",
            "markerLatitude": 18.933959,
            "markerLongitude": -89.420508,
            "withinTremor": false
        }
    ]
}
